City_ID,City,Lat,Lng,Max Temp,Humidity,Cloudiness,Wind Speed,Country,Date
0,Yerbogachen,61.2767,108.0108,34.12,59,20,8.01,RU,2022-10-15 05:54:41
1,Bethel,41.3712,-73.414,50.94,88,15,3.87,US,2022-10-15 05:54:42
2,Avera,33.194,-82.5271,49.51,47,0,3.83,US,2022-10-15 05:54:42
3,Rikitea,-23.1203,-134.9692,72.54,82,1,8.95,PF,2022-10-15 05:49:59
4,Hamina,60.5697,27.1979,49.28,89,99,13.15,FI,2022-10-15 05:54:43
5,Ushuaia,-54.8,-68.3,46.06,81,100,20.71,AR,2022-10-15 05:54:43
6,Punta Arenas,-53.15,-70.9167,46.51,87,75,13.8,CL,2022-10-15 05:54:43
7,Meulaboh,4.1363,96.1285,81.86,75,78,3.6,ID,2022-10-15 05:54:44
8,Mataura,-46.1927,168.8643,56.48,59,5,1.1,NZ,2022-10-15 05:54:44
9,Qaanaaq,77.484,-69.3632,16.95,86,100,11.61,GL,2022-10-15 05:54:44
10,Ketchikan,55.3422,-131.6461,58.98,100,100,13.8,US,2022-10-15 05:54:45
11,Tuatapere,-46.1333,167.6833,59.56,60,21,0.25,NZ,2022-10-15 05:54:45
12,Trujillo,-8.116,-79.03,58.96,88,20,6.91,PE,2022-10-15 05:54:45
13,Hobart,-42.8794,147.3294,56.91,62,75,16.11,AU,2022-10-15 05:54:46
14,Bredasdorp,-34.5322,20.0403,58.5,90,100,15.12,ZA,2022-10-15 05:54:46
15,Caravelas,-17.7125,-39.2481,71.42,89,8,5.35,BR,2022-10-15 05:54:46
16,Barabash,43.2,131.4833,65.82,50,0,6.58,RU,2022-10-15 05:54:46
17,Baykit,61.67,96.37,36.79,62,94,5.1,RU,2022-10-15 05:54:47
18,Albany,42.6001,-73.9662,42.53,89,0,1.99,US,2022-10-15 05:54:47
19,Iqaluit,63.7506,-68.5145,29.93,100,100,16.11,CA,2022-10-15 05:54:48
20,Vardo,70.3705,31.1107,39.18,93,100,4.61,NO,2022-10-15 05:54:48
21,Avarua,-21.2078,-159.775,73.45,88,4,4.61,CK,2022-10-15 05:54:33
22,Vazante,-17.9869,-46.9078,70.21,43,75,1.79,BR,2022-10-15 05:54:49
23,Ballina,-28.8667,153.5667,72.01,72,36,9.44,AU,2022-10-15 05:53:05
24,Sinnamary,5.3833,-52.95,78.12,89,36,8.3,GF,2022-10-15 05:54:50
25,Butaritari,3.0707,172.7902,81.82,74,89,15.19,KI,2022-10-15 05:54:51
26,Halifax,44.6453,-63.5724,60.69,94,100,11.5,CA,2022-10-15 05:53:15
27,Luderitz,-26.6481,15.1594,66.94,57,54,18.39,NA,2022-10-15 05:54:51
28,Payo,-3.7508,103.6372,88.41,63,94,0.94,ID,2022-10-15 05:54:52
29,Casatenovo,45.6964,9.3117,58.26,93,77,1.99,IT,2022-10-15 05:54:53
30,Bubaque,11.2833,-15.8333,81.41,76,71,10.96,GW,2022-10-15 05:54:54
31,Narsaq,60.9167,-46.05,24.28,64,69,5.66,GL,2022-10-15 05:54:54
32,Gamboma,-1.8764,15.8644,72.54,93,100,2.95,CG,2022-10-15 05:54:55
33,Neuquen,-38.9516,-68.0591,55.29,33,0,9.22,AR,2022-10-15 05:52:21
34,Nikolskoye,59.7035,30.7861,45.79,88,94,6.4,RU,2022-10-15 05:54:55
35,Tottori,35.5,134.2333,71.67,73,20,5.75,JP,2022-10-15 05:50:08
36,Itarema,-2.9248,-39.9167,77.85,79,55,16.87,BR,2022-10-15 05:54:56
37,Kasama,-10.2129,31.1808,74.08,26,27,7.9,ZM,2022-10-15 05:54:56
38,Atuona,-9.8,-139.0333,76.96,79,17,18.28,PF,2022-10-15 05:54:57
39,Maceio,-9.6658,-35.7353,71.04,94,40,4.61,BR,2022-10-15 05:54:57
40,Riverton,40.5219,-111.9391,61.3,41,0,3.0,US,2022-10-15 05:54:57
41,Saint George,37.1041,-113.5841,73.99,20,0,3.44,US,2022-10-15 05:54:09
42,Provideniya,64.3833,-173.3,27.36,88,80,9.15,RU,2022-10-15 05:55:58
43,Atambua,-9.1061,124.8925,85.98,56,86,1.83,ID,2022-10-15 05:55:58
44,Ponta Do Sol,32.6667,-17.1,70.43,69,65,4.25,PT,2022-10-15 05:55:58
45,High Level,58.5169,-117.136,26.71,80,0,6.91,CA,2022-10-15 05:55:59
46,Biloela,-24.4167,150.5,87.73,29,5,11.95,AU,2022-10-15 05:55:59
47,Zhukovka,53.534,33.728,35.87,74,37,5.17,RU,2022-10-15 05:56:00
48,Sechura,-5.5569,-80.8222,60.73,84,3,8.61,PE,2022-10-15 05:56:00
49,Kununurra,-15.7667,128.7333,102.18,29,75,9.22,AU,2022-10-15 05:51:26
50,Kochevo,59.5994,54.3125,42.89,91,100,6.42,RU,2022-10-15 05:56:01
51,Vaini,-21.2,-175.2,80.76,74,40,11.5,TO,2022-10-15 05:56:01
52,Mahebourg,-20.4081,57.7,74.25,73,75,8.05,MU,2022-10-15 05:56:02
53,Faanui,-16.4833,-151.75,79.2,76,9,14.83,PF,2022-10-15 05:56:02
54,Lavrentiya,65.5833,-171.0,27.7,81,68,7.99,RU,2022-10-15 05:56:02
55,Te Anau,-45.4167,167.7167,57.31,65,39,5.08,NZ,2022-10-15 05:54:38
56,Visby,57.6409,18.296,52.02,93,75,10.36,SE,2022-10-15 05:56:03
57,East London,-33.0153,27.9116,63.54,94,75,6.91,ZA,2022-10-15 05:55:30
58,Aswan,24.0934,32.907,72.7,35,0,6.91,EG,2022-10-15 05:56:04
59,Cidreira,-30.1811,-50.2056,61.3,73,96,17.6,BR,2022-10-15 05:56:04
60,Basco,20.4487,121.9702,80.08,86,100,28.81,PH,2022-10-15 05:56:04
61,Asau,46.4333,26.4,45.52,88,97,2.19,RO,2022-10-15 05:56:05
62,Westport,41.1415,-73.3579,54.23,82,0,3.0,US,2022-10-15 05:51:58
63,Hamilton,39.1834,-84.5333,60.89,41,84,3.0,US,2022-10-15 05:53:28
64,Esperance,-33.8667,121.9,63.1,63,0,11.45,AU,2022-10-15 05:56:06
65,Isangel,-19.55,169.2667,78.91,69,40,9.22,VU,2022-10-15 05:56:06
66,Umm Lajj,25.0213,37.2685,83.75,42,0,4.45,SA,2022-10-15 05:56:07
67,Namibe,-15.1961,12.1522,66.36,85,63,4.21,AO,2022-10-15 05:56:07
68,Hamadan,34.7992,48.5146,54.48,33,0,0.0,IR,2022-10-15 05:56:08
69,Port Hedland,-20.3167,118.5667,87.85,16,4,14.97,AU,2022-10-15 05:56:08
70,Pevek,69.7008,170.3133,11.98,95,100,8.28,RU,2022-10-15 05:53:56
71,Yellowknife,62.456,-114.3525,30.72,59,75,13.8,CA,2022-10-15 05:56:09
72,Tuktoyaktuk,69.4541,-133.0374,28.4,86,100,21.85,CA,2022-10-15 05:56:09
73,Rawson,-43.3002,-65.1023,60.82,26,19,22.88,AR,2022-10-15 05:56:09
74,Puerto Ayora,-0.7393,-90.3518,65.55,96,85,8.99,EC,2022-10-15 05:56:10
75,Villahermosa,17.9833,-92.9167,75.02,94,100,9.51,MX,2022-10-15 05:55:39
76,Chuy,-33.6971,-53.4616,52.23,76,56,7.63,UY,2022-10-15 05:53:57
77,Victor Harbor,-35.5667,138.6167,63.68,70,98,1.01,AU,2022-10-15 05:56:10
78,Krasnoturansk,54.3186,91.5639,41.9,50,6,9.6,RU,2022-10-15 05:56:11
79,Cumana,10.4635,-64.1775,77.32,85,1,8.21,VE,2022-10-15 05:56:11
80,Zemio,5.0314,25.1361,71.67,93,100,1.32,CF,2022-10-15 05:56:11
81,Sainte-Suzanne,-20.9061,55.6089,77.22,75,75,12.66,RE,2022-10-15 05:56:12
82,Nyurba,63.2842,118.3319,29.82,74,98,5.57,RU,2022-10-15 05:56:12
83,Kapaa,22.0752,-159.319,80.58,85,91,1.01,US,2022-10-15 05:56:13
84,Vostok,46.4856,135.8833,55.78,58,40,5.82,RU,2022-10-15 05:56:13
85,Northam,51.0333,-4.2167,51.62,94,36,21.54,GB,2022-10-15 05:56:13
86,Caraballeda,10.6112,-66.8522,79.86,87,40,1.14,VE,2022-10-15 05:56:14
87,Coahuayana,18.7333,-103.6833,77.65,94,99,2.08,MX,2022-10-15 05:56:14
88,Padang,-0.9492,100.3543,80.65,76,100,4.09,ID,2022-10-15 05:57:15
89,Kitgum,3.2783,32.8867,74.64,63,99,4.21,UG,2022-10-15 05:57:15
90,Ojinaga,29.5667,-104.4167,74.35,56,0,8.05,MX,2022-10-15 05:57:16
91,Vila,42.0304,-8.1588,50.88,94,49,3.04,PT,2022-10-15 05:57:16
92,Vestmanna,62.1564,-7.1664,36.52,87,40,0.0,FO,2022-10-15 05:57:16
93,Busselton,-33.65,115.3333,63.34,54,24,11.05,AU,2022-10-15 05:57:17
94,New Norfolk,-42.7826,147.0587,56.57,54,86,4.0,AU,2022-10-15 05:57:17
95,Tura,25.5198,90.2201,82.87,55,0,5.03,IN,2022-10-15 05:53:33
96,Cururupu,-1.8283,-44.8683,76.08,87,73,4.23,BR,2022-10-15 05:57:18
97,Dali,25.7,100.1833,68.07,77,60,3.04,CN,2022-10-15 05:57:18
98,Hermanus,-34.4187,19.2345,57.79,87,100,18.37,ZA,2022-10-15 05:57:18
99,Georgetown,5.4112,100.3354,84.13,85,40,6.91,MY,2022-10-15 05:54:19
100,Florenville,49.6998,5.3074,55.33,99,100,6.11,BE,2022-10-15 05:57:19
101,Tres Picos,15.8667,-93.5333,77.14,86,85,4.76,MX,2022-10-15 05:57:19
102,Tutoia,-2.7619,-42.2744,78.62,83,42,12.37,BR,2022-10-15 05:57:20
103,Wufeng,27.45,104.8333,52.99,67,99,7.38,CN,2022-10-15 05:57:20
104,Saint Anthony,45.0205,-93.218,35.89,93,0,4.61,US,2022-10-15 05:57:21
105,Tucuman,-26.8241,-65.2226,53.6,66,75,6.91,AR,2022-10-15 05:57:21
106,Acari,-15.4311,-74.6158,63.0,72,58,2.55,PE,2022-10-15 05:57:21
107,Saskylakh,71.9167,114.0833,27.79,91,100,14.0,RU,2022-10-15 05:57:22
108,Teguise,29.0605,-13.564,66.42,88,20,5.75,ES,2022-10-15 05:57:22
109,Airai,-8.9266,125.4092,73.18,59,99,3.69,TL,2022-10-15 05:57:23
110,Alofi,-19.0595,-169.9187,78.69,78,26,9.22,NU,2022-10-15 05:57:23
111,West Fargo,46.875,-96.9004,34.02,77,0,6.91,US,2022-10-15 05:57:23
112,Winslow,35.0242,-110.6974,64.85,27,1,6.46,US,2022-10-15 05:57:24
113,Geraldton,-28.7667,114.6,72.01,40,2,17.27,AU,2022-10-15 05:55:16
114,Hattiesburg,31.3271,-89.2903,62.22,87,0,4.0,US,2022-10-15 05:57:25
115,Reyes,-14.3167,-67.3833,66.63,96,99,2.33,BO,2022-10-15 05:57:25
116,Bluff,-46.6,168.3333,56.8,72,1,10.16,NZ,2022-10-15 05:57:26
117,Chak Azam Sahu,30.75,73.0333,92.82,15,0,1.92,PK,2022-10-15 05:57:26
118,Port Alfred,-33.5906,26.891,62.19,89,100,5.01,ZA,2022-10-15 05:57:27
119,Cape Town,-33.9258,18.4232,66.38,74,20,16.11,ZA,2022-10-15 05:53:35
120,Upernavik,72.7868,-56.1549,22.91,92,99,5.93,GL,2022-10-15 05:56:10
121,Hokitika,-42.7167,170.9667,54.97,76,38,6.96,NZ,2022-10-15 05:57:27
122,Ancud,-41.8697,-73.8203,43.59,87,31,4.0,CL,2022-10-15 05:57:28
123,Abbeville,50.1,1.8333,59.49,97,91,9.01,FR,2022-10-15 05:57:28
124,Jamestown,42.097,-79.2353,49.71,48,16,1.01,US,2022-10-15 05:57:29
125,Pisco,-13.7,-76.2167,59.05,82,7,4.61,PE,2022-10-15 05:57:29
126,Richards Bay,-28.783,32.0377,73.65,65,97,12.1,ZA,2022-10-15 05:57:30
127,Uyuni,-20.4597,-66.825,38.16,47,73,5.06,BO,2022-10-15 05:57:30
128,La Romana,18.4273,-68.9728,74.37,87,83,6.06,DO,2022-10-15 05:57:31
129,Teguldet,57.3064,88.1667,42.17,54,35,9.75,RU,2022-10-15 05:57:31
130,Cairns,-16.9167,145.7667,92.07,56,27,14.97,AU,2022-10-15 05:55:11
131,Ilorin,8.5,4.55,70.16,94,20,0.0,NG,2022-10-15 05:57:31
132,Yulara,-25.2406,130.9889,86.27,23,1,3.85,AU,2022-10-15 05:57:32
133,Garowe,8.4054,48.4845,82.4,53,2,11.12,SO,2022-10-15 05:57:32
134,Tete,-16.1564,33.5867,80.69,44,0,0.0,MZ,2022-10-15 05:57:33
135,Dikson,73.5069,80.5464,33.28,96,100,17.45,RU,2022-10-15 05:57:33
136,Sibolga,1.7427,98.7792,80.56,84,99,6.73,ID,2022-10-15 05:57:33
137,Arys,42.4252,68.795,72.46,19,85,5.19,KZ,2022-10-15 05:57:34
138,Llanes,43.4198,-4.7549,66.88,65,2,2.68,ES,2022-10-15 05:58:34
139,Itacoatiara,-3.1431,-58.4442,73.45,94,62,2.82,BR,2022-10-15 05:57:47
140,Axim,4.8699,-2.2405,75.65,87,98,7.09,GH,2022-10-15 05:58:34
141,Berlevag,70.8578,29.0864,35.55,87,63,5.75,NO,2022-10-15 05:58:35
142,Ampanihy,-24.7,44.75,82.8,47,1,6.26,MG,2022-10-15 05:58:35
143,Lagunas,-5.2269,-75.6753,72.52,99,54,4.0,PE,2022-10-15 05:58:36
144,Kendari,-3.945,122.4989,86.27,67,100,4.07,ID,2022-10-15 05:53:56
145,Khani,41.9563,42.9566,47.77,66,100,2.39,GE,2022-10-15 05:58:36
146,Haines Junction,60.7522,-137.5108,30.15,86,100,2.3,CA,2022-10-15 05:58:37
147,Grants Pass,42.439,-123.3284,61.81,60,20,4.61,US,2022-10-15 05:55:12
148,Lagoa,39.05,-27.9833,65.93,67,100,8.9,PT,2022-10-15 05:58:37
149,Hithadhoo,-0.6,73.0833,82.56,69,39,14.85,MV,2022-10-15 05:58:37
150,Marrakesh,31.6315,-8.0083,66.27,77,0,3.44,MA,2022-10-15 05:58:38
151,Barrow,71.2906,-156.7887,21.22,93,100,10.36,US,2022-10-15 05:58:38
152,Guerrero Negro,27.9769,-114.0611,66.78,75,13,9.6,MX,2022-10-15 05:58:38
153,Cockburn Town,21.4612,-71.1419,82.13,75,95,14.74,TC,2022-10-15 05:58:39
154,Longyearbyen,78.2186,15.6401,19.24,73,20,3.44,SJ,2022-10-15 05:58:39
155,Chokurdakh,70.6333,147.9167,12.45,96,96,7.58,RU,2022-10-15 05:58:39
156,Sola,-13.8833,167.55,80.17,75,97,14.92,VU,2022-10-15 05:58:40
157,Rameswaram,9.2833,79.3,82.65,73,100,6.29,IN,2022-10-15 05:58:40
158,Faya,18.3851,42.4509,64.92,18,9,6.29,SA,2022-10-15 05:58:40
159,Sao Filipe,14.8961,-24.4956,76.41,82,41,9.37,CV,2022-10-15 05:58:41
160,Marawi,7.9986,124.2928,80.33,75,46,3.87,PH,2022-10-15 05:58:41
161,Gorlice,49.6556,21.1604,54.55,87,93,6.85,PL,2022-10-15 05:58:42
162,Quelimane,-17.8786,36.8883,75.15,73,0,10.36,MZ,2022-10-15 05:58:42
163,Cherskiy,68.75,161.3,8.78,95,100,6.46,RU,2022-10-15 05:58:42
164,Novoagansk,61.9449,76.6625,39.34,68,97,12.86,RU,2022-10-15 05:58:43
165,Camacha,33.0833,-16.3333,65.62,77,20,4.61,PT,2022-10-15 05:58:43
166,Segezha,63.7415,34.3222,45.99,92,100,7.52,RU,2022-10-15 05:58:43
167,Villa Guerrero,18.8667,-99.65,60.66,92,96,3.02,MX,2022-10-15 05:58:43
168,Sulangan,11.1373,123.7228,84.88,72,57,7.56,PH,2022-10-15 05:58:44
169,Cascais,38.6979,-9.4215,63.16,91,1,10.0,PT,2022-10-15 05:58:44
170,Banjar,-8.19,114.9675,81.61,83,79,1.39,ID,2022-10-15 05:57:22
171,Brigantine,39.4101,-74.3646,57.0,86,0,1.01,US,2022-10-15 05:58:44
172,Saint-Georges,12.0564,-61.7485,78.48,89,20,5.75,GD,2022-10-15 05:54:16
173,Mabaruma,8.2,-59.7833,73.0,99,94,2.37,GY,2022-10-15 05:58:45
174,San Juan,-31.5375,-68.5364,59.92,22,0,6.49,AR,2022-10-15 05:58:45
175,Tongliao,43.6125,122.2653,60.28,29,34,8.63,CN,2022-10-15 05:58:46
176,Nome,64.5011,-165.4064,27.16,75,68,8.52,US,2022-10-15 05:58:46
177,Poum,-20.2333,164.0167,74.41,66,8,12.75,NC,2022-10-15 05:58:46
178,Port Elizabeth,-33.918,25.5701,62.89,86,100,12.66,ZA,2022-10-15 05:58:47
179,Marzuq,14.4,46.4667,78.51,29,5,2.37,YE,2022-10-15 05:58:47
180,Goundam,16.4145,-3.6708,84.81,43,42,9.24,ML,2022-10-15 05:58:47
181,Arman,59.7,150.1667,32.02,58,49,5.46,RU,2022-10-15 05:58:48
182,Saldanha,-33.0117,17.9442,59.05,78,75,14.58,ZA,2022-10-15 05:58:48
183,Calvia,39.5657,2.5062,63.41,76,3,4.7,ES,2022-10-15 05:58:02
184,Salinopolis,-0.6136,-47.3561,79.41,80,77,10.78,BR,2022-10-15 05:58:49
185,Inyonga,-6.7167,32.0667,74.53,31,95,9.86,TZ,2022-10-15 05:58:49
186,Koson,39.0375,65.585,70.12,12,12,3.85,UZ,2022-10-15 05:59:49
187,Portland,45.5234,-122.6762,69.08,58,7,4.0,US,2022-10-15 05:55:06
188,Berdigestyakh,62.0989,126.6992,29.77,92,97,6.8,RU,2022-10-15 05:59:50
189,Husavik,66.0449,-17.3389,35.26,98,100,19.91,IS,2022-10-15 05:59:50
190,Mar Del Plata,-38.0023,-57.5575,46.09,93,0,1.01,AR,2022-10-15 05:59:51
191,Bam,29.106,58.357,84.88,8,0,4.72,IR,2022-10-15 05:59:51
192,Talnakh,69.4865,88.3972,33.21,100,100,8.28,RU,2022-10-15 05:59:51
193,Torbay,47.6666,-52.7314,47.5,95,40,9.22,CA,2022-10-15 05:59:52
194,Dobele,56.625,23.2786,49.23,83,95,7.61,LV,2022-10-15 05:59:52
195,Norman Wells,65.282,-126.8329,5.04,92,20,2.3,CA,2022-10-15 05:59:53
196,Rio Gallegos,-51.6226,-69.2181,53.65,50,0,18.41,AR,2022-10-15 05:59:53
197,Dhidhdhoo,6.8833,73.1,81.7,78,98,9.51,MV,2022-10-15 05:59:54
198,Divnogorsk,55.9594,92.3619,32.49,55,16,4.63,RU,2022-10-15 05:59:54
199,Hasaki,35.7333,140.8333,75.29,69,94,14.41,JP,2022-10-15 05:59:54
200,Ajdabiya,30.7554,20.2263,73.02,67,11,15.97,LY,2022-10-15 05:59:55
201,Kodiak,57.79,-152.4072,45.91,93,100,28.77,US,2022-10-15 05:57:48
202,Nyzhnya Duvanka,49.5846,38.1743,42.62,63,6,7.0,UA,2022-10-15 05:59:55
203,Usinsk,65.9939,57.5281,36.61,77,100,3.06,RU,2022-10-15 05:59:56
204,Tomar,39.602,-8.4092,61.18,91,8,4.59,PT,2022-10-15 05:59:56
205,Sao Joao Da Barra,-21.6403,-41.0511,71.85,87,72,10.42,BR,2022-10-15 05:59:57
206,Carnarvon,-24.8667,113.6333,72.91,47,0,15.79,AU,2022-10-15 05:59:57
207,Ishigaki,24.3448,124.1572,84.33,89,75,21.85,JP,2022-10-15 05:59:57
208,Raga,8.4596,25.678,76.01,78,100,3.91,SS,2022-10-15 05:59:58
209,Sitka,57.0531,-135.33,50.83,92,100,7.27,US,2022-10-15 05:59:58
210,Fort Nelson,58.8053,-122.7002,36.99,63,100,2.3,CA,2022-10-15 05:59:58
211,Bathsheba,13.2167,-59.5167,81.21,83,40,14.97,BB,2022-10-15 05:59:59
212,Boyolangu,-8.1181,111.8935,81.59,74,84,9.46,ID,2022-10-15 05:59:59
213,Gizo,-8.103,156.8419,83.59,68,76,3.0,SB,2022-10-15 05:59:59
214,Fortuna,40.5982,-124.1573,47.32,100,100,3.44,US,2022-10-15 06:00:00
215,Henties Bay,-22.116,14.2845,57.83,88,52,4.68,NA,2022-10-15 06:00:00
216,Kimbe,-5.5502,150.1429,87.91,62,14,6.62,PG,2022-10-15 06:00:00
217,Damaturu,11.747,11.9608,77.45,28,100,1.05,NG,2022-10-15 06:00:01
218,Oranjestad,12.524,-70.027,81.91,84,4,3.0,AW,2022-10-15 06:00:01
219,San Ramon,37.7799,-121.978,61.38,86,0,7.0,US,2022-10-15 05:57:22
220,Mapastepec,15.4333,-92.9,75.6,91,60,4.18,MX,2022-10-15 06:00:02
221,Zhigansk,66.7697,123.3711,19.94,90,87,5.03,RU,2022-10-15 06:00:04
222,Port Lincoln,-34.7333,135.8667,60.39,58,98,8.34,AU,2022-10-15 06:00:05
223,El Alto,-4.2714,-81.2147,62.85,72,11,13.96,PE,2022-10-15 06:00:07
224,Kropotkin,45.4375,40.5756,51.93,64,0,15.46,RU,2022-10-15 06:00:07
225,Kamina,-8.7386,24.9906,80.22,24,86,2.06,CD,2022-10-15 06:00:08
226,Kupang,-10.1667,123.5833,87.37,63,54,7.83,ID,2022-10-15 06:00:09
227,Hambantota,6.1241,81.1185,86.34,79,40,11.5,LK,2022-10-15 06:00:09
228,Salamanca,40.8333,-6.0,42.58,69,8,4.14,ES,2022-10-15 06:00:10
229,Matagami,49.7502,-77.6328,35.71,87,0,10.36,CA,2022-10-15 06:00:11
230,Constitucion,-35.3333,-72.4167,52.41,79,0,6.4,CL,2022-10-15 06:01:11
231,Bilibino,68.0546,166.4372,-4.38,99,96,3.29,RU,2022-10-15 06:01:11
232,Bangolo,7.0069,-7.475,69.73,99,98,2.35,CI,2022-10-15 06:01:12
233,Muros,42.7762,-9.0603,64.09,94,96,9.46,ES,2022-10-15 06:01:12
234,Port Blair,11.6667,92.75,83.75,72,60,6.22,IN,2022-10-15 06:01:13
235,Pronsk,54.1048,39.6092,40.59,78,28,5.19,RU,2022-10-15 06:01:13
236,Khatanga,71.9667,102.5,32.95,98,100,17.76,RU,2022-10-15 06:01:13
237,Seoul,37.5683,126.9778,76.39,36,0,4.61,KR,2022-10-15 05:56:58
238,Ribeira Grande,38.5167,-28.7,64.78,77,91,7.0,PT,2022-10-15 06:01:14
239,Pulandian,39.3953,121.9669,69.44,48,99,6.35,CN,2022-10-15 06:01:14
240,Touros,-5.1989,-35.4608,75.22,82,18,14.58,BR,2022-10-15 05:59:51
241,Asilah,35.465,-6.0348,66.16,69,10,5.19,MA,2022-10-15 06:01:15
242,Veraval,20.9,70.3667,87.8,42,54,9.64,IN,2022-10-15 06:01:15
243,Maumere,-8.6199,122.2111,84.94,68,57,1.25,ID,2022-10-15 06:01:16
244,College,64.8569,-147.8028,24.8,80,1,5.01,US,2022-10-15 06:01:16
245,Paciran,-6.8767,112.3761,85.82,63,100,5.06,ID,2022-10-15 06:01:16
246,Roberval,48.5168,-72.2324,47.59,85,17,5.35,CA,2022-10-15 06:01:12
247,Buluang,13.3068,123.3425,86.59,69,66,9.48,PH,2022-10-15 06:01:17
248,Lasa,46.6166,10.7002,51.37,95,97,1.5,IT,2022-10-15 06:01:17
249,Ostrovnoy,68.0531,39.5131,43.97,92,100,9.51,RU,2022-10-15 06:01:18
250,Clyde River,70.4692,-68.5914,25.63,87,98,12.41,CA,2022-10-15 06:01:18
251,Sayyan,15.1718,44.3244,61.95,21,1,8.95,YE,2022-10-15 06:01:18
252,Hilo,19.7297,-155.09,80.28,93,46,5.01,US,2022-10-15 05:59:06
253,Omsukchan,62.5333,155.8,2.61,98,74,3.89,RU,2022-10-15 06:01:19
254,Daru,-9.0763,143.2092,81.07,87,98,13.67,PG,2022-10-15 06:01:19
255,Coihaique,-45.5752,-72.0662,45.21,75,0,5.75,CL,2022-10-15 05:58:46
256,Brae,60.3964,-1.353,47.77,70,61,15.39,GB,2022-10-15 06:01:20
257,Huilong,31.8111,121.655,68.45,65,57,9.64,CN,2022-10-15 06:01:20
258,Mackay,-21.15,149.2,84.69,70,6,10.51,AU,2022-10-15 06:00:38
259,Waitati,-45.75,170.5667,52.81,74,69,11.36,NZ,2022-10-15 06:01:20
260,Waingapu,-9.6567,120.2641,86.59,62,59,11.48,ID,2022-10-15 06:01:21
261,Mahon,39.8885,4.2658,68.56,94,0,2.3,ES,2022-10-15 06:01:21
262,Kugesi,56.029,47.2925,38.86,65,40,6.71,RU,2022-10-15 06:01:21
263,Nanyuki,0.0167,37.0728,64.69,59,87,2.48,KE,2022-10-15 06:01:22
264,Dicabisagan,17.0818,122.4157,79.83,83,100,6.06,PH,2022-10-15 06:01:22
265,Bara,10.3744,10.7288,74.23,90,96,5.08,NG,2022-10-15 06:01:22
266,Korla,41.7597,86.1469,65.46,17,2,6.22,CN,2022-10-15 06:01:23
267,Dankov,53.2515,39.1555,40.68,74,34,4.07,RU,2022-10-15 05:57:33
268,Gamba,-2.65,10.0,74.35,94,100,6.73,GA,2022-10-15 06:01:23
269,Bengkulu,-3.8004,102.2655,82.89,69,92,6.13,ID,2022-10-15 06:01:24
270,Suntar,62.1444,117.6319,30.09,73,97,3.76,RU,2022-10-15 06:01:24
271,Bahia Honda,22.9036,-83.1592,76.24,88,33,3.76,CU,2022-10-15 06:01:24
272,Grajau,-5.8194,-46.1386,75.18,72,54,4.05,BR,2022-10-15 06:01:25
273,Dongsheng,39.8161,109.9776,58.03,20,75,11.99,CN,2022-10-15 06:01:25
274,Taoudenni,22.6783,-3.9836,85.71,11,45,9.15,ML,2022-10-15 06:01:25
275,Saint Andrews,34.0454,-81.1293,52.81,92,0,0.0,US,2022-10-15 06:02:26
276,Gat,31.61,34.7642,74.08,100,67,5.55,IL,2022-10-15 06:02:26
277,Taujica,15.7,-85.9167,74.8,91,92,2.64,HN,2022-10-15 06:02:27
278,Lubango,-14.9172,13.4925,66.31,62,90,2.39,AO,2022-10-15 06:02:27
279,Qaqortoq,60.7167,-46.0333,26.94,56,36,5.21,GL,2022-10-15 06:02:27
280,Kahului,20.8947,-156.47,78.84,92,32,5.99,US,2022-10-15 06:02:28
281,Sao Raimundo Das Mangabeiras,-7.0219,-45.4811,77.58,46,72,4.54,BR,2022-10-15 06:02:28
282,Deputatskiy,69.3,139.9,3.78,94,96,5.3,RU,2022-10-15 06:02:29
283,Vao,-22.6667,167.4833,69.39,61,2,10.76,NC,2022-10-15 06:02:29
284,Bardiyah,31.7561,25.0865,70.2,76,20,18.43,LY,2022-10-15 06:02:30
285,Emba,48.8264,58.1442,51.64,47,10,3.53,KZ,2022-10-15 06:02:30
286,Havre-Saint-Pierre,50.2334,-63.5986,48.56,93,100,14.97,CA,2022-10-15 06:02:31
287,Lucapa,-8.4192,20.7447,75.06,57,85,0.58,AO,2022-10-15 06:02:31
288,Silvassa,20.2667,73.0167,84.42,52,100,8.37,IN,2022-10-15 06:02:31
289,Santa Rosalia,27.3167,-112.2833,74.39,65,11,8.52,MX,2022-10-15 06:02:32
290,Sunndalsora,62.6754,8.5515,43.11,99,100,3.11,NO,2022-10-15 06:02:32
291,Chirongui,-12.9319,45.1483,80.53,62,37,1.03,YT,2022-10-15 06:02:32
292,Paamiut,61.994,-49.6678,34.5,65,29,23.38,GL,2022-10-15 06:02:33
293,Lorengau,-2.0226,147.2712,85.57,67,53,7.07,PG,2022-10-15 06:02:33
294,Lompoc,34.6391,-120.4579,64.02,98,100,3.44,US,2022-10-15 06:02:34
295,Camocim,-2.9022,-40.8411,76.62,82,79,12.8,BR,2022-10-15 06:02:34
296,Castro,-24.7911,-50.0119,54.39,98,100,7.0,BR,2022-10-15 06:02:34
297,Beloha,-25.1667,45.05,82.67,47,0,6.78,MG,2022-10-15 06:02:35
298,Shama,33.6102,104.2852,47.19,82,100,2.28,CN,2022-10-15 06:02:35
299,Fayaoue,-20.65,166.5333,74.12,64,63,9.71,NC,2022-10-15 06:02:36
300,Leninskoye,41.7589,69.3864,75.36,13,89,2.51,KZ,2022-10-15 06:02:36
301,Gbarnga,6.9956,-9.4722,68.45,99,90,1.3,LR,2022-10-15 06:02:36
302,Cabo San Lucas,22.8909,-109.9124,76.51,80,26,8.01,MX,2022-10-15 05:59:28
303,Soja,34.6667,133.75,82.69,55,3,2.84,JP,2022-10-15 06:02:37
304,Ust-Maya,60.4167,134.5333,32.68,83,98,1.7,RU,2022-10-15 06:02:38
305,Ternate,0.8,127.4,86.05,67,100,6.26,ID,2022-10-15 06:02:38
306,Saint-Philippe,-21.3585,55.7679,76.59,67,9,12.1,RE,2022-10-15 06:02:38
307,Tezu,27.9167,96.1667,86.04,58,4,3.89,IN,2022-10-15 06:02:38
308,Sterling,39.0062,-77.4286,51.26,88,0,0.0,US,2022-10-15 05:58:43
309,Flinders,-34.5833,150.8552,68.05,70,16,9.4,AU,2022-10-15 06:02:39
310,Leningradskiy,69.3833,178.4167,12.18,79,22,5.55,RU,2022-10-15 06:02:39
311,Kavieng,-2.5744,150.7967,84.74,71,24,10.76,PG,2022-10-15 06:02:39
312,Vidim,56.4088,103.1106,33.4,73,96,4.65,RU,2022-10-15 06:02:40
313,Jalu,29.0331,21.5482,71.33,70,10,11.41,LY,2022-10-15 06:02:40
314,Darnah,32.767,22.6367,71.74,71,84,23.89,LY,2022-10-15 06:02:40
315,Grindavik,63.8424,-22.4338,36.07,80,75,26.46,IS,2022-10-15 06:02:41
316,Hobyo,5.3505,48.5268,81.0,72,2,14.16,SO,2022-10-15 06:02:41
317,Torrevieja,37.9787,-0.6822,65.8,68,2,3.53,ES,2022-10-15 06:02:41
318,Goure,13.9835,10.2704,79.02,18,70,6.69,NE,2022-10-15 06:02:42
319,Manono,-7.3,27.4167,84.24,24,95,2.66,CD,2022-10-15 06:02:42
320,Carlsbad,33.1581,-117.3506,66.45,90,100,4.61,US,2022-10-15 05:59:00
321,Denpasar,-8.65,115.2167,85.71,79,40,12.66,ID,2022-10-15 06:02:42
322,Port Moresby,-9.4431,147.1797,90.82,66,40,17.27,PG,2022-10-15 05:57:51
323,Inongo,-1.95,18.2667,71.6,97,100,6.6,CD,2022-10-15 06:03:43
324,Victoria,22.2855,114.1577,90.18,50,56,15.99,HK,2022-10-15 06:02:30
325,La Seyne-Sur-Mer,43.0982,5.8847,69.89,77,1,3.0,FR,2022-10-15 06:03:43
326,Verkhnyaya Inta,65.9811,60.3094,40.44,90,100,3.18,RU,2022-10-15 06:03:44
327,Jamiltepec,16.2833,-97.8167,70.27,98,94,3.0,MX,2022-10-15 06:03:44
328,Coquimbo,-29.9533,-71.3436,55.13,87,100,8.05,CL,2022-10-15 06:03:44
329,Rovaniemi,66.5,25.7167,45.81,100,100,6.91,FI,2022-10-15 06:03:45
330,Caibarien,22.5206,-79.4669,70.92,82,99,1.72,CU,2022-10-15 06:03:45
331,Sozimskiy,59.7418,52.2482,42.06,90,100,5.57,RU,2022-10-15 06:03:45
332,Ruidoso,33.3317,-105.673,56.1,58,100,10.36,US,2022-10-15 06:03:46
333,Yuanping,38.7153,112.7575,69.46,23,85,1.7,CN,2022-10-15 06:03:46
334,Ilulissat,69.2167,-51.1,23.02,74,75,3.44,GL,2022-10-15 06:03:46
335,Juneau,58.3019,-134.4197,47.1,100,100,3.44,US,2022-10-15 06:03:47
336,Coari,-4.085,-63.1414,72.48,91,79,1.9,BR,2022-10-15 06:03:47
337,Kloulklubed,7.0419,134.2556,81.1,75,100,13.73,PW,2022-10-15 06:03:47
338,San Quintin,30.4833,-115.95,65.19,73,78,3.29,MX,2022-10-15 06:03:48
339,Tasiilaq,65.6145,-37.6368,30.36,55,51,7.47,GL,2022-10-15 06:03:48
340,Dingle,10.9995,122.6711,85.17,74,77,12.01,PH,2022-10-15 06:03:48
341,Rocha,-34.4833,-54.3333,45.36,84,83,1.83,UY,2022-10-15 06:01:26
342,Tiksi,71.6872,128.8694,18.59,82,100,16.42,RU,2022-10-15 06:03:49
343,Ozernovskiy,51.5,156.5167,45.7,84,61,9.62,RU,2022-10-15 06:03:49
344,Ahuas,15.4759,-84.3553,74.64,97,100,2.66,HN,2022-10-15 06:03:50
345,Barranca,-10.75,-77.7667,59.31,88,8,7.81,PE,2022-10-15 06:03:50
346,Alekseyevsk,57.8406,108.3492,33.51,71,99,5.14,RU,2022-10-15 06:03:50
347,Alpena,45.0617,-83.4327,54.18,59,100,3.44,US,2022-10-15 06:03:51
348,Dunedin,-45.8742,170.5036,52.81,74,64,4.0,NZ,2022-10-15 06:00:49
349,Bambous Virieux,-20.3428,57.7575,77.25,61,75,14.97,MU,2022-10-15 06:03:51
350,Bundaberg,-24.85,152.35,77.22,68,57,5.99,AU,2022-10-15 06:03:51
351,Alice Springs,-23.7,133.8833,88.21,40,11,11.5,AU,2022-10-15 06:00:18
352,Boca Do Acre,-8.7522,-67.3978,71.96,99,100,1.86,BR,2022-10-15 06:03:52
353,Sinj,43.7036,16.6394,57.81,73,2,4.0,HR,2022-10-15 06:03:52
354,Severo-Yeniseyskiy,60.3725,93.0408,33.93,65,97,4.03,RU,2022-10-15 06:03:53
355,Petatlan,17.5167,-101.2667,76.32,94,100,3.31,MX,2022-10-15 06:03:53
356,Wasilla,61.5814,-149.4394,35.73,54,0,17.27,US,2022-10-15 06:03:53
357,Nehe,48.4833,124.8333,51.89,21,91,16.64,CN,2022-10-15 06:03:54
358,Xihe,31.6864,113.4659,78.84,30,10,9.78,CN,2022-10-15 06:03:54
359,Xiongzhou,25.1167,114.3,86.29,23,19,10.96,CN,2022-10-15 06:03:55
360,Hendersonville,36.3048,-86.62,66.85,53,82,1.01,US,2022-10-15 06:03:55
361,Terrace,54.5163,-128.6035,55.31,100,100,0.0,CA,2022-10-15 06:03:56
362,Udachnyy,66.4167,112.4,28.45,79,98,10.96,RU,2022-10-15 06:03:56
363,Mayumba,-3.432,10.6554,76.46,90,100,7.74,GA,2022-10-15 06:03:56
364,Aksha,50.2814,113.2867,39.38,38,70,19.71,RU,2022-10-15 06:04:57
365,Poso,-1.3959,120.7524,86.52,67,42,4.83,ID,2022-10-15 06:04:57
366,Adeje,28.1227,-16.726,70.56,70,20,4.61,ES,2022-10-15 06:04:57
367,Los Arroyos,14.6447,-88.8922,67.96,98,93,1.79,HN,2022-10-15 06:04:58
368,Kruisfontein,-34.0033,24.7314,59.88,90,100,11.1,ZA,2022-10-15 06:04:58
369,Broome,42.2506,-75.833,46.85,77,100,6.91,US,2022-10-15 06:04:59
370,Progreso,21.2833,-89.6667,78.91,88,61,8.48,MX,2022-10-15 06:04:59
371,Maroantsetra,-15.4333,49.7333,70.99,86,69,7.2,MG,2022-10-15 06:05:00
372,Mumford,5.2618,-0.759,75.29,89,90,8.12,GH,2022-10-15 06:05:00
373,Iberia,29.9502,-91.7507,64.98,86,33,6.24,US,2022-10-15 06:00:42
374,Bristol,41.8334,-71.1662,57.61,88,98,4.41,US,2022-10-15 06:05:00
375,Iralaya,15.0,-83.2333,80.15,82,95,5.44,HN,2022-10-15 06:05:01
376,Berbera,10.4396,45.0143,85.95,53,0,6.22,SO,2022-10-15 06:05:01
377,Zyryanka,65.75,150.85,10.76,93,95,1.59,RU,2022-10-15 06:05:02
378,Puri,19.8,85.85,86.52,72,5,6.87,IN,2022-10-15 06:02:27
379,Kaitangata,-46.2817,169.8464,54.7,75,11,9.53,NZ,2022-10-15 06:05:02
380,Greymouth,-42.4667,171.2,54.3,77,27,5.7,NZ,2022-10-15 06:05:03
381,Urucara,-2.5364,-57.76,73.08,95,40,2.71,BR,2022-10-15 06:05:03
382,Karwar,14.8,74.1333,83.14,72,88,3.8,IN,2022-10-15 06:05:03
383,Knysna,-34.0363,23.0471,60.76,94,100,12.28,ZA,2022-10-15 06:05:04
384,Helong,42.5397,128.9972,66.92,32,3,2.71,CN,2022-10-15 06:05:04
385,Bolobo,-2.1667,16.2333,73.22,94,100,3.38,CD,2022-10-15 06:05:05
386,Thompson,55.7435,-97.8558,36.37,99,100,10.16,CA,2022-10-15 06:04:28
387,Notse,6.95,1.1667,71.78,96,99,3.65,TG,2022-10-15 06:05:05
388,Aden,12.7794,45.0367,84.54,63,1,14.85,YE,2022-10-15 06:05:05
389,Long Beach,33.767,-118.1892,68.05,88,100,1.01,US,2022-10-15 06:03:01
390,Torbat-E Jam,35.244,60.6225,77.02,11,0,1.07,IR,2022-10-15 06:05:06
391,Bodo,67.28,14.405,47.44,71,0,18.41,NO,2022-10-15 06:05:06
392,Arrifes,37.7667,-25.7,66.24,82,40,10.36,PT,2022-10-15 06:05:07
393,Cajnice,43.5575,19.0711,43.36,90,6,1.81,BA,2022-10-15 06:05:07
394,Andros Town,24.7,-77.7667,76.96,75,20,6.82,BS,2022-10-15 06:05:07
395,Balkanabat,39.5108,54.3671,75.81,24,22,4.92,TM,2022-10-15 06:05:08
396,Balikpapan,-1.2675,116.8289,86.99,66,20,8.05,ID,2022-10-15 06:00:26
397,Omboue,-1.5746,9.2618,73.99,93,100,10.51,GA,2022-10-15 06:05:08
398,Kieta,-6.2167,155.6333,82.67,76,88,4.05,PG,2022-10-15 06:05:08
399,Awjilah,29.1081,21.2869,71.42,70,1,11.81,LY,2022-10-15 06:05:09
400,Carutapera,-1.195,-46.02,77.95,82,79,7.2,BR,2022-10-15 06:05:09
401,Calbuco,-41.768,-73.1273,42.01,86,14,12.71,CL,2022-10-15 06:05:10
402,Katsuura,35.1333,140.3,72.52,76,96,16.26,JP,2022-10-15 06:05:10
403,Ronneby,56.21,15.276,55.9,100,75,10.36,SE,2022-10-15 06:05:10
404,Vydrino,51.485,104.8461,36.81,68,100,9.93,RU,2022-10-15 06:05:11
405,Zhangzhou,24.5133,117.6556,82.9,42,97,6.53,CN,2022-10-15 06:05:11
406,Los Llanos De Aridane,28.6585,-17.9182,67.75,82,75,12.66,ES,2022-10-15 06:05:11
407,Agadir,30.4202,-9.5982,73.85,29,73,6.22,MA,2022-10-15 06:05:12
408,Bar Harbor,44.3876,-68.2039,65.53,99,100,10.36,US,2022-10-15 06:06:12
409,Karpogory,64.0019,44.4451,42.08,95,100,4.76,RU,2022-10-15 06:06:12
410,Qasigiannguit,68.8193,-51.1922,23.25,77,76,5.55,GL,2022-10-15 06:06:13
411,Kaeo,-35.1,173.7833,57.97,69,60,9.64,NZ,2022-10-15 06:06:13
412,Fairbanks,64.8378,-147.7164,24.82,83,0,5.75,US,2022-10-15 06:06:13
413,Kutum,14.2,24.6667,74.82,26,34,10.56,SD,2022-10-15 06:06:14
414,Vallenar,-28.5708,-70.7581,57.11,73,0,2.06,CL,2022-10-15 06:06:14
415,Sur,22.5667,59.5289,88.41,23,12,1.97,OM,2022-10-15 06:06:14
416,Srednekolymsk,67.45,153.6833,15.46,94,100,6.2,RU,2022-10-15 06:06:15
417,Bansang,13.4333,-14.65,74.86,95,100,5.1,GM,2022-10-15 06:06:15
418,Pasni,25.2631,63.471,82.35,50,0,6.42,PK,2022-10-15 06:06:15
419,Sobolevo,54.4299,31.8996,39.29,81,84,6.78,RU,2022-10-15 06:06:16
420,Ardakan,32.31,54.0175,78.64,13,0,1.79,IR,2022-10-15 06:06:16
421,Tilichiki,60.4667,166.1,30.6,92,100,5.06,RU,2022-10-15 06:06:17
422,Johi,26.6921,67.6133,93.4,15,0,2.86,PK,2022-10-15 06:06:17
423,Fujin,47.26,132.0322,66.27,40,0,11.65,CN,2022-10-15 06:06:17
424,Morshansk,53.4435,41.8107,40.33,68,41,3.42,RU,2022-10-15 06:06:18
425,Vestmannaeyjar,63.4427,-20.2734,38.05,67,16,18.75,IS,2022-10-15 06:04:44
426,Lebu,-37.6167,-73.65,49.17,93,8,15.84,CL,2022-10-15 06:06:18
427,Moundsville,39.9203,-80.7431,53.55,90,35,7.94,US,2022-10-15 06:06:19
428,Ariquemes,-9.9133,-63.0408,72.43,93,93,3.15,BR,2022-10-15 06:06:19
429,Amapa,1.0,-52.0,69.64,99,20,1.07,BR,2022-10-15 06:06:20
430,Pundaguitan,6.3711,126.1689,85.33,71,95,10.92,PH,2022-10-15 06:06:20
431,Iquitos,-3.7481,-73.2472,75.24,88,75,4.61,PE,2022-10-15 06:05:08
432,Kayerkan,69.3497,87.7602,32.52,100,100,18.28,RU,2022-10-15 06:06:21
433,Ahipara,-35.1667,173.1667,58.26,76,89,6.71,NZ,2022-10-15 06:06:21
434,Zatoka,46.0725,30.4654,54.23,57,12,15.57,UA,2022-10-15 06:06:22
435,Markala,13.7021,-6.0659,83.12,51,98,6.33,ML,2022-10-15 06:06:22
436,Shasta Lake,40.6804,-122.3708,70.52,37,0,4.09,US,2022-10-15 06:06:23
437,Maarianhamina,60.0973,19.9348,53.46,94,40,11.5,AX,2022-10-15 06:06:23
438,Haputale,6.7681,80.9595,72.34,64,96,8.41,LK,2022-10-15 06:06:24
439,Samfya,-11.3649,29.5565,74.61,29,29,10.04,ZM,2022-10-15 06:06:24
440,Nanchang,28.6833,115.8833,78.84,36,0,13.13,CN,2022-10-15 06:06:25
441,Mirabad,30.4362,61.8383,84.85,8,0,2.08,AF,2022-10-15 06:06:25
442,Mashhad,36.297,59.6062,69.94,28,0,4.61,IR,2022-10-15 06:06:26
443,Smithers,54.7804,-127.1743,49.68,95,100,1.25,CA,2022-10-15 06:06:26
444,Lipovtsy,44.2014,131.7244,65.64,44,0,5.46,RU,2022-10-15 06:06:26
445,Manzil Salim,35.8567,8.4765,61.36,64,19,2.48,TN,2022-10-15 06:06:27
446,Biltine,14.5333,20.9167,81.21,24,57,11.61,TD,2022-10-15 06:06:27
447,Mercedes,-34.6515,-59.4307,55.63,69,100,8.34,AR,2022-10-15 06:06:27
448,Half Moon Bay,37.4636,-122.4286,60.89,92,100,5.75,US,2022-10-15 06:06:28
449,Balao,-2.9167,-79.8167,70.11,85,79,4.79,EC,2022-10-15 06:06:28
450,Mnogovershinnyy,53.9353,139.9242,44.55,64,22,3.67,RU,2022-10-15 06:06:29
451,Bull Savanna,17.8868,-77.5902,76.44,87,100,6.85,JM,2022-10-15 06:06:29
452,Sept-Iles,50.2001,-66.3821,49.05,96,100,21.85,CA,2022-10-15 06:06:29
453,Oussouye,12.485,-16.5469,76.69,89,98,6.22,SN,2022-10-15 06:07:30
454,Khandyga,62.6667,135.6,26.67,83,83,0.98,RU,2022-10-15 06:07:30
455,Kirkenaer,60.4564,12.0582,50.04,91,100,11.83,NO,2022-10-15 06:07:31
456,Varena,54.2167,24.5667,48.52,86,100,8.32,LT,2022-10-15 06:07:31
457,Obernai,48.4631,7.481,60.4,94,100,9.22,FR,2022-10-15 06:07:31
458,Puerto Escondido,15.85,-97.0667,79.16,87,96,4.97,MX,2022-10-15 06:07:31
459,Dickinson,29.4608,-95.0513,77.95,86,0,3.44,US,2022-10-15 06:03:36
460,Banda Aceh,5.5577,95.3222,82.02,74,100,13.87,ID,2022-10-15 06:07:32
461,Bambanglipuro,-7.95,110.2833,81.97,69,64,10.29,ID,2022-10-15 06:07:32
462,Broken Hill,-31.95,141.4333,69.4,34,17,5.44,AU,2022-10-15 06:07:33
463,Launceston,-41.45,147.1667,60.8,77,40,12.66,AU,2022-10-15 06:03:28
464,Touba,8.2833,-7.6833,68.11,98,86,2.95,CI,2022-10-15 06:07:33
465,Wangqing,43.3218,129.7634,66.69,41,0,4.7,CN,2022-10-15 06:07:33
466,Watertown,42.3709,-71.1828,55.99,93,0,9.22,US,2022-10-15 06:07:34
467,Bowen,-20.0167,148.2333,78.44,68,5,16.53,AU,2022-10-15 06:07:34
468,Shahdadkot,27.8477,67.9055,92.26,16,0,4.27,PK,2022-10-15 06:07:34
469,Anadyr,64.75,177.4833,30.0,80,75,3.83,RU,2022-10-15 06:07:35
470,Tahta,26.7693,31.5021,73.38,47,2,5.97,EG,2022-10-15 06:07:35
471,Ciudad Del Maiz,22.4,-99.6,63.23,93,37,2.44,MX,2022-10-15 06:07:35
472,Salta,-24.7859,-65.4117,57.4,56,61,3.29,AR,2022-10-15 06:07:36
473,Khudumelapye,-23.8833,24.75,79.74,20,34,12.03,BW,2022-10-15 06:07:36
474,Nishihara,26.1842,127.7558,85.28,89,75,24.16,JP,2022-10-15 06:07:36
475,Tagbac,7.089,125.1567,85.51,63,35,3.36,PH,2022-10-15 06:07:37
476,Bohodukhiv,50.1647,35.5276,42.1,67,9,4.79,UA,2022-10-15 06:07:37
477,Huarmey,-10.0681,-78.1522,61.09,86,4,8.01,PE,2022-10-15 06:07:37
478,Eydhafushi,5.1033,73.0708,81.01,80,94,10.74,MV,2022-10-15 06:07:38
479,Arbon,47.5167,9.4333,60.28,91,75,3.44,CH,2022-10-15 06:07:38
480,Tual,-5.6667,132.75,84.09,68,100,5.79,ID,2022-10-15 06:07:39
481,Mount Gambier,-37.8333,140.7667,57.34,69,95,6.93,AU,2022-10-15 06:07:39
482,Camabatela,-8.1881,15.375,63.84,97,100,4.45,AO,2022-10-15 06:07:40
483,Piacabucu,-10.4056,-36.4344,72.82,83,31,4.88,BR,2022-10-15 06:07:40
484,Alberdi,-32.8899,-60.6906,52.34,92,100,4.61,AR,2022-10-15 06:07:40
485,Ulladulla,-35.35,150.4667,64.04,66,28,11.21,AU,2022-10-15 06:07:40
486,Rumoi,43.9344,141.6428,60.31,82,99,5.95,JP,2022-10-15 06:07:41
487,Tak Bai,6.2595,102.0546,87.6,61,82,10.89,TH,2022-10-15 06:07:41
488,Paita,-5.0892,-81.1144,61.25,83,7,11.05,PE,2022-10-15 06:07:41
489,Heihe,50.2441,127.4902,54.18,22,67,16.73,CN,2022-10-15 06:07:42
490,Kafue,-15.7691,28.1814,82.71,18,0,9.1,ZM,2022-10-15 06:07:42
491,Bereda,43.2686,-7.5406,55.04,97,100,3.83,ES,2022-10-15 06:07:42
492,Matamoros,25.5333,-103.25,74.1,41,15,2.37,MX,2022-10-15 06:07:43
493,Samana,19.2056,-69.3369,75.92,88,62,3.98,DO,2022-10-15 06:07:43
494,Aquiraz,-3.9014,-38.3911,78.89,82,33,11.45,BR,2022-10-15 06:07:43
495,Khandagayty,50.7333,92.05,36.68,38,0,5.03,RU,2022-10-15 06:07:44
496,Lata,40.1629,-8.3327,56.91,96,9,2.06,PT,2022-10-15 06:07:44
497,Sigayevo,56.4216,53.7757,44.19,88,100,2.35,RU,2022-10-15 06:07:44
498,Yar-Sale,66.8333,70.8333,40.75,76,100,7.56,RU,2022-10-15 06:07:45
499,Ulaangom,49.9811,92.0667,41.18,35,3,3.42,MN,2022-10-15 06:05:41
500,Arraial Do Cabo,-22.9661,-42.0278,71.37,89,87,10.33,BR,2022-10-15 06:07:45
501,Olafsvik,64.8945,-23.7142,36.41,65,86,22.73,IS,2022-10-15 06:08:46
502,Mitsamiouli,-11.3847,43.2844,76.59,73,3,12.15,KM,2022-10-15 06:08:46
503,Sault Sainte Marie,46.5168,-84.3333,39.76,93,100,5.75,CA,2022-10-15 06:08:46
504,Coruripe,-10.1256,-36.1756,73.02,81,30,5.14,BR,2022-10-15 06:08:47
505,Matai,-8.3,31.5167,72.14,30,78,5.68,TZ,2022-10-15 06:08:47
506,Constancia,24.2231,-107.1869,75.69,84,88,3.83,MX,2022-10-15 06:08:47
507,Farah,32.5,62.5,78.33,8,0,3.56,AF,2022-10-15 06:08:48
508,Penzance,50.1186,-5.5371,57.88,83,8,26.42,GB,2022-10-15 06:08:48
509,Bombay,19.0144,72.8479,87.78,62,75,6.91,IN,2022-10-15 06:07:44
510,Codrington,-38.2667,141.9667,53.51,83,100,8.99,AU,2022-10-15 06:08:48
511,Zaozerne,45.1582,33.2787,54.18,65,2,22.08,UA,2022-10-15 06:08:49
512,Olinda,-8.0089,-34.8553,73.13,83,40,2.3,BR,2022-10-15 06:08:49
513,Marquette,46.5333,-87.6335,30.78,94,47,3.91,US,2022-10-15 06:08:50
514,Aripuana,-9.1667,-60.6333,72.57,88,79,1.74,BR,2022-10-15 06:08:13
515,Port Hueneme,34.1478,-119.1951,67.78,93,100,5.75,US,2022-10-15 06:08:50
516,Goryachiy Klyuch,44.6308,39.13,47.82,67,0,8.23,RU,2022-10-15 06:08:50
517,Radcliff,37.8404,-85.9491,64.06,43,40,10.36,US,2022-10-15 06:08:51
518,Miraflores,19.2167,-98.8083,60.98,80,66,1.59,MX,2022-10-15 06:08:51
519,Poznan,52.4069,16.9299,52.29,94,59,8.05,PL,2022-10-15 06:07:48
520,Araouane,18.9048,-3.5265,83.28,16,68,1.1,ML,2022-10-15 06:08:51
521,Kuching,1.55,110.3333,91.62,58,40,5.99,MY,2022-10-15 06:08:52
522,Vilhena,-12.7406,-60.1458,68.07,95,100,3.15,BR,2022-10-15 06:08:52
523,Gorgan,36.8387,54.4348,77.9,48,5,4.52,IR,2022-10-15 06:08:53
524,Areia Branca,-4.9561,-37.1369,74.12,75,23,12.66,BR,2022-10-15 06:05:44
525,Severo-Kurilsk,50.6789,156.125,45.84,86,27,8.95,RU,2022-10-15 06:08:53
526,Bay Roberts,47.5999,-53.2648,47.34,81,100,4.16,CA,2022-10-15 06:04:21
527,Padre Bernardo,-15.35,-48.5,72.45,32,77,3.56,BR,2022-10-15 06:07:09
528,Gimli,50.6336,-96.9907,39.09,97,100,12.71,CA,2022-10-15 06:08:53
529,Abha,18.2164,42.5053,68.25,11,0,0.0,SA,2022-10-15 06:04:41
530,Salalah,17.0151,54.0924,82.49,65,40,2.3,OM,2022-10-15 06:08:54
531,Shimoda,34.6667,138.95,71.1,76,32,12.82,JP,2022-10-15 06:08:54
532,Mayo,38.8876,-76.5119,53.55,92,0,0.0,US,2022-10-15 06:08:54
533,Xianyang,34.3378,108.7026,73.15,46,94,5.17,CN,2022-10-15 06:08:55
534,Javanrud,34.7961,46.5172,70.09,23,23,8.23,IR,2022-10-15 06:08:55
535,Bahar,34.9072,48.4414,69.24,19,0,5.91,IR,2022-10-15 06:08:55
536,Sungaipenuh,-2.0833,101.3833,73.76,77,100,4.88,ID,2022-10-15 06:07:22
537,Evensk,61.95,159.2333,23.36,74,22,8.95,RU,2022-10-15 06:08:56
538,Soyo,-6.1349,12.3689,77.25,84,98,7.99,AO,2022-10-15 06:08:56
539,Saint-Pierre,-21.3393,55.4781,76.68,57,20,21.85,RE,2022-10-15 06:08:56
540,Salvador,13.8333,-88.9167,72.0,98,99,0.45,SV,2022-10-15 06:08:57
541,Port-Gentil,-0.7193,8.7815,76.96,94,75,9.22,GA,2022-10-15 06:08:57
542,Inhambane,-23.865,35.3833,78.1,69,25,5.19,MZ,2022-10-15 06:06:26
543,Pochutla,15.7432,-96.4661,74.82,94,100,3.98,MX,2022-10-15 06:08:57
544,Toora-Khem,52.4675,96.11,38.3,40,5,2.3,RU,2022-10-15 06:08:58
545,Jingdezhen,29.2947,117.2079,80.8,36,0,5.1,CN,2022-10-15 06:09:58
546,Scottsbluff,41.8666,-103.6672,56.52,46,0,3.44,US,2022-10-15 06:09:58
547,Aklavik,68.2191,-135.0107,25.39,58,90,6.76,CA,2022-10-15 06:09:59
548,Ciudad Guayana,8.3533,-62.6528,72.3,96,37,2.75,VE,2022-10-15 06:09:59
549,Noumea,-22.2763,166.4572,73.38,62,18,8.46,NC,2022-10-15 06:09:59
550,Tazovskiy,67.4667,78.7,37.89,73,100,13.6,RU,2022-10-15 06:10:00
551,Balkhash,46.844,74.9804,65.01,19,0,8.95,KZ,2022-10-15 06:10:00
552,Mattru,7.6244,-11.8332,70.74,95,91,1.7,SL,2022-10-15 06:10:00
553,Anchorage,61.2181,-149.9003,36.63,61,0,12.66,US,2022-10-15 06:10:01
554,General Roca,-39.0333,-67.5833,52.63,26,0,12.8,AR,2022-10-15 06:06:58
555,Mansa,29.9833,75.3833,86.95,29,0,1.28,IN,2022-10-15 06:08:33
556,Barcelos,41.5388,-8.6151,59.92,94,44,2.19,PT,2022-10-15 06:10:01
557,Vadso,70.0744,29.7487,38.28,87,100,2.3,NO,2022-10-15 06:10:02
558,Canutama,-6.5339,-64.3831,72.23,93,99,2.24,BR,2022-10-15 06:10:02
559,Talara,-4.5772,-81.2719,63.18,77,8,15.88,PE,2022-10-15 06:10:02
560,Quatre Cocos,-20.2078,57.7625,77.11,68,39,16.58,MU,2022-10-15 06:10:03
561,Khuzdar,27.7384,66.6434,76.69,7,0,2.73,PK,2022-10-15 06:10:03
562,Angoche,-16.2325,39.9086,80.08,60,0,12.37,MZ,2022-10-15 06:10:03
563,Tubbergen,52.4,6.7667,53.71,96,42,8.75,NL,2022-10-15 06:10:04
564,Lima,-12.0432,-77.0282,57.45,77,0,9.22,PE,2022-10-15 06:09:27
565,Cajati,-24.7361,-48.1228,64.4,98,100,1.59,BR,2022-10-15 06:10:04
566,Barwadih,23.8333,84.1167,81.03,58,68,5.17,IN,2022-10-15 06:10:05
567,Awbari,26.5921,12.7805,68.31,64,4,8.3,LY,2022-10-15 06:10:05
568,Kargil,34.5667,76.1,46.54,21,0,2.86,IN,2022-10-15 06:10:05
569,Wojkowice,50.3651,19.0365,52.86,95,0,9.22,PL,2022-10-15 06:10:06
570,Valparaiso,-33.0393,-71.6273,49.64,87,0,3.44,CL,2022-10-15 06:05:53
571,Innisfail,-17.5333,146.0333,81.48,62,30,7.61,AU,2022-10-15 06:10:06
572,Celestun,20.8667,-90.4,76.93,89,91,9.6,MX,2022-10-15 06:10:07
573,Vanimo,-2.6741,141.3028,85.19,70,98,9.73,PG,2022-10-15 06:10:07
574,Calama,-22.4667,-68.9333,39.69,26,0,19.57,CL,2022-10-15 06:10:07
575,Amga,60.8953,131.9608,34.11,81,99,0.92,RU,2022-10-15 06:10:08
576,Chingirlau,51.095,54.0814,45.32,78,98,7.54,KZ,2022-10-15 06:10:08
577,Rock Sound,24.9,-76.2,82.67,70,11,6.44,BS,2022-10-15 06:10:08
578,Cape Canaveral,28.4058,-80.6048,81.07,80,0,8.05,US,2022-10-15 06:10:09
579,Japura,-0.3167,102.35,87.4,67,90,1.77,ID,2022-10-15 06:10:09
580,Cam Ranh,11.9214,109.1591,84.16,70,20,9.22,VN,2022-10-15 06:10:09
581,Shebunino,46.4339,141.8603,58.6,81,98,4.5,RU,2022-10-15 06:10:10
582,Gunjur,13.2019,-16.7339,75.27,100,40,0.0,GM,2022-10-15 06:10:10
583,Nizhnevartovsk,60.9344,76.5531,39.02,70,0,13.42,RU,2022-10-15 06:10:10
584,Sergeyevka,53.88,67.4158,55.13,47,100,9.51,KZ,2022-10-15 06:10:11
585,Choix,26.7092,-108.3219,76.19,82,56,1.1,MX,2022-10-15 06:10:11
586,Eucaliptus,-17.5833,-67.5167,42.15,74,34,7.18,BO,2022-10-15 06:10:12
587,Praia Da Vitoria,38.7333,-27.0667,64.76,77,95,9.37,PT,2022-10-15 06:10:12
588,Lensk,60.7253,114.9278,32.13,68,100,4.47,RU,2022-10-15 06:10:12
589,Hatillo,18.4863,-66.8254,79.84,90,88,1.99,PR,2022-10-15 06:10:13
590,Altos,-5.0381,-42.46,79.11,75,47,2.57,BR,2022-10-15 06:10:14
591,Condega,13.365,-86.3985,68.49,95,86,2.26,NI,2022-10-15 06:10:14
592,Sorland,67.667,12.6934,49.86,76,40,26.84,NO,2022-10-15 06:10:15
593,Atikokan,48.7555,-91.6216,28.22,95,70,3.22,CA,2022-10-15 06:10:15
594,Melilla,35.2937,-2.9383,66.58,88,0,3.44,ES,2022-10-15 06:11:16
595,Lianzhou,24.7811,112.3825,85.73,23,6,9.71,CN,2022-10-15 06:11:16
596,Nantucket,41.2835,-70.0995,60.91,98,100,3.44,US,2022-10-15 06:11:16
597,Turukhansk,65.8167,87.9833,34.5,74,100,15.79,RU,2022-10-15 06:11:17
598,Honiara,-9.4333,159.95,81.09,79,99,0.89,SB,2022-10-15 06:11:17
599,Arlit,18.7369,7.3853,78.53,13,2,5.28,NE,2022-10-15 06:11:17
600,Kenai,60.5544,-151.2583,40.08,56,0,19.57,US,2022-10-15 06:11:18
601,Laguna,38.421,-121.4238,70.77,70,0,8.05,US,2022-10-15 06:11:18
602,Juan Lacaze,-34.4342,-57.4381,52.12,66,100,13.09,UY,2022-10-15 06:11:18
603,Lincoln,40.8,-96.667,41.16,71,1,1.01,US,2022-10-15 06:07:55
604,Peniche,39.3558,-9.3811,63.28,94,16,8.48,PT,2022-10-15 06:11:19
605,Doka,13.5167,35.7667,80.08,65,13,7.67,SD,2022-10-15 06:11:19
606,Tulum,20.2167,-87.4667,77.99,91,81,4.94,MX,2022-10-15 06:11:19
607,Calamar,10.2511,-74.9146,74.57,90,99,3.83,CO,2022-10-15 06:11:20
608,Codajas,-3.8367,-62.0569,72.43,96,81,2.19,BR,2022-10-15 06:11:20
609,Wonthaggi,-38.6044,145.5913,57.25,67,100,10.63,AU,2022-10-15 06:11:20
610,Tiznit,29.5833,-9.5,75.61,25,90,7.38,MA,2022-10-15 06:11:21
611,Hami,42.8,93.45,65.03,21,19,2.39,CN,2022-10-15 06:11:21
612,Kurilsk,45.2333,147.8833,55.35,71,100,4.94,RU,2022-10-15 06:11:21
613,Manokwari,-0.8667,134.0833,84.45,67,77,7.18,ID,2022-10-15 06:11:22
614,Strezhevoy,60.7333,77.5889,40.44,65,73,12.68,RU,2022-10-15 06:11:22
615,Pierre,44.3683,-100.351,38.86,60,0,10.0,US,2022-10-15 06:11:22
616,Santa Elena,-2.2333,-80.85,67.69,81,68,6.6,EC,2022-10-15 06:11:23
617,Tambopata,-12.7333,-69.1833,68.81,99,99,3.56,PE,2022-10-15 06:11:23
618,Batsfjord,70.6345,29.7185,35.38,93,40,9.22,NO,2022-10-15 06:11:24
619,Port Augusta,-32.5,137.7667,71.44,36,6,6.35,AU,2022-10-15 06:11:24
620,Praya,14.9215,-23.5087,77.54,83,75,11.5,CV,2022-10-15 06:11:24
621,Jatai,-17.8814,-51.7144,70.54,44,22,4.54,BR,2022-10-15 06:11:25
622,Santa Isabel Do Rio Negro,-0.4139,-65.0192,74.53,88,88,1.66,BR,2022-10-15 06:11:25
623,Cayenne,4.9333,-52.3333,75.24,94,0,2.3,GF,2022-10-15 06:11:25
624,Collie,-33.3667,116.15,69.08,36,42,4.36,AU,2022-10-15 06:11:26
625,Villa Maria,-32.4075,-63.2402,46.81,94,99,3.53,AR,2022-10-15 06:11:26
626,Riyadh,24.6877,46.7219,84.34,16,0,4.76,SA,2022-10-15 06:10:04
627,Adrar,20.5022,-10.0711,83.62,30,100,15.46,MR,2022-10-15 06:11:26
628,Taywarah,33.35,64.4167,57.92,13,0,5.7,AF,2022-10-15 06:11:27
629,Edson,53.5835,-116.4356,41.11,87,40,3.44,CA,2022-10-15 06:11:27
630,Merauke,-8.4667,140.3333,83.37,79,98,16.82,ID,2022-10-15 06:11:27
631,Zambezi,-13.5432,23.1047,77.63,21,6,11.03,ZM,2022-10-15 06:11:28
632,Chegdomyn,51.1167,133.0167,55.65,46,37,9.37,RU,2022-10-15 06:11:28
633,Jardim De Piranhas,-6.3786,-37.3519,75.63,62,10,13.35,BR,2022-10-15 06:11:28
634,Sinop,41.7711,34.8709,50.43,72,100,3.53,TR,2022-10-15 06:10:48
635,Chicama,-7.8447,-79.1469,57.74,80,49,4.56,PE,2022-10-15 06:11:29
636,Ndjole,-0.1783,10.7649,73.8,98,100,1.57,GA,2022-10-15 06:11:29
637,Dalbandin,28.8947,64.4101,82.53,5,0,6.33,PK,2022-10-15 06:11:29
638,Mananara,-16.1667,49.7667,70.59,86,64,7.2,MG,2022-10-15 06:11:30
639,Aldan,58.6031,125.3894,29.16,96,100,10.58,RU,2022-10-15 06:11:30
640,Otane,-39.8833,176.6333,52.02,83,100,2.28,NZ,2022-10-15 06:12:30
641,Atbasar,51.8,68.3333,53.87,45,100,4.9,KZ,2022-10-15 06:12:31
642,Nanfeng,23.7434,111.7959,89.46,22,57,2.68,CN,2022-10-15 06:12:31
643,Stokmarknes,68.5646,14.9108,35.58,80,85,4.61,NO,2022-10-15 06:12:31
644,Magadan,59.5667,150.8,31.53,64,38,4.07,RU,2022-10-15 06:12:32
645,Arroio Grande,-32.2375,-53.0869,50.88,82,15,6.73,BR,2022-10-15 06:12:32
646,Rundu,-17.9333,19.7667,77.56,18,61,7.36,NA,2022-10-15 06:12:32
647,Putina,-15.4667,-69.4333,43.5,71,99,5.95,PE,2022-10-15 06:12:33
648,Strizhi,58.4576,49.2867,40.48,81,100,7.54,RU,2022-10-15 06:12:33
649,Tighina,46.8306,29.4711,39.97,48,19,6.42,MD,2022-10-15 06:12:33
650,Kuala Terengganu,5.3302,103.1408,88.99,76,30,4.79,MY,2022-10-15 06:12:34
651,Klaksvik,62.2266,-6.589,38.32,68,76,6.46,FO,2022-10-15 06:12:34
652,Kavaratti,10.5669,72.642,81.41,73,81,1.28,IN,2022-10-15 06:12:35
653,Vraca,43.8422,18.3955,41.72,100,75,3.44,BA,2022-10-15 06:12:35
654,Malanje,-9.5402,16.341,67.03,91,92,6.89,AO,2022-10-15 06:12:35
655,Vagur,61.4732,-6.8119,46.51,65,92,4.0,FO,2022-10-15 06:12:35
656,Roald,62.5833,6.1333,47.75,87,75,16.11,NO,2022-10-15 06:12:36
657,Ugoofaaru,5.6667,73.0,81.72,77,99,9.95,MV,2022-10-15 06:12:36
658,Guarapari,-20.6667,-40.4975,72.9,90,72,4.65,BR,2022-10-15 06:12:36
659,Ossora,59.2353,163.0719,36.25,82,97,3.09,RU,2022-10-15 06:12:37
660,Milkovo,54.7167,158.6167,41.63,61,76,4.36,RU,2022-10-15 06:12:37
661,San Cristobal,7.7669,-72.225,64.9,97,95,1.41,VE,2022-10-15 06:12:38
662,Carpinteria,34.3989,-119.5185,66.78,83,8,0.38,US,2022-10-15 06:12:38
663,Cortez,37.3489,-108.5859,45.7,60,0,5.75,US,2022-10-15 06:12:38
664,Kirkcudbright,54.8383,-4.0491,51.98,84,75,27.31,GB,2022-10-15 06:12:39
665,Capelinha,-17.6914,-42.5158,58.84,98,38,3.49,BR,2022-10-15 06:12:39
666,Boende,-0.2167,20.8667,71.98,94,100,3.29,CD,2022-10-15 06:12:39
667,Alta Floresta,-9.8756,-56.0861,71.89,82,95,2.93,BR,2022-10-15 06:12:40
668,Toamasina,-18.1667,49.3833,73.4,83,75,8.05,MG,2022-10-15 06:12:40
669,Kushima,31.4583,131.2333,78.6,64,35,9.95,JP,2022-10-15 06:12:41
670,Xining,36.6167,101.7667,46.27,42,100,2.08,CN,2022-10-15 06:09:23
671,Tautira,-17.7333,-149.15,77.76,78,24,7.83,PF,2022-10-15 06:12:41
672,Pangnirtung,66.1451,-65.7125,32.9,72,8,5.79,CA,2022-10-15 06:12:41
673,Palasa,18.7667,84.4167,83.43,78,23,6.78,IN,2022-10-15 06:12:42
674,Vila Velha,-20.3297,-40.2925,75.15,90,100,10.36,BR,2022-10-15 06:12:42
675,Naze,28.3667,129.4833,77.31,85,100,14.16,JP,2022-10-15 06:12:42
676,Chhatak,25.0333,91.6667,87.22,65,1,2.73,BD,2022-10-15 06:12:43
677,Bandarbeyla,9.4942,50.8122,83.46,64,14,14.72,SO,2022-10-15 06:12:43
678,Gargzdai,55.7128,21.4033,49.78,86,87,10.47,LT,2022-10-15 06:11:30
679,Plettenberg Bay,-34.0527,23.3716,60.03,94,100,16.37,ZA,2022-10-15 06:12:43
680,Yei,4.095,30.6779,71.69,89,100,0.81,SS,2022-10-15 06:12:44
681,Pahrump,36.2083,-115.9839,72.25,20,0,3.24,US,2022-10-15 06:09:30
682,Morondava,-20.2833,44.2833,79.3,64,0,5.35,MG,2022-10-15 06:12:44
683,Mericourt,50.4012,2.8625,57.85,93,91,8.72,FR,2022-10-15 06:12:44
684,Nelson Bay,-32.7167,152.15,68.11,71,0,8.01,AU,2022-10-15 06:12:45
685,Khorinsk,52.1657,109.7726,38.95,40,90,17.16,RU,2022-10-15 06:12:45
686,Hilliard,40.0334,-83.1582,56.79,41,40,16.11,US,2022-10-15 06:12:17
687,Srandakan,-7.9386,110.2506,81.93,69,63,10.0,ID,2022-10-15 06:13:45
688,Souillac,-20.5167,57.5167,77.38,61,75,14.97,MU,2022-10-15 06:13:46
689,Sioux Lookout,50.1001,-91.917,35.67,87,100,4.61,CA,2022-10-15 06:13:46
690,Port-Cartier,50.0334,-66.8654,48.74,98,100,17.83,CA,2022-10-15 06:13:47
691,Najran,17.4924,44.1277,75.94,16,21,5.73,SA,2022-10-15 06:12:37
692,Booue,-0.0921,11.9385,72.27,98,100,1.68,GA,2022-10-15 06:13:47
693,Acajutla,13.5928,-89.8275,78.37,85,92,3.58,SV,2022-10-15 06:13:47
694,Roma,43.2128,-75.4557,49.66,92,0,5.75,US,2022-10-15 06:13:48
695,Port Hardy,50.6996,-127.4199,48.38,100,20,3.44,CA,2022-10-15 06:13:48
696,Fergus Falls,46.283,-96.0776,30.18,94,0,0.0,US,2022-10-15 06:13:48
